{"businesses": [{"id": "H4jJ7XB3CetIr1pg56CczQ", "alias": "levain-bakery-new-york", "name": "Levain Bakery", "image_url": "https://s3-media2.fl.yelpcdn.com/bphoto/zgjSt_RGjXQMJxYxYSo-bQ/o.jpg", "is_closed": false, "url": "https://www.yelp.com/biz/levain-bakery-new-york?adjust_creative=xyR_AdR6BfKaFakL89bXnQ&utm_campaign=yelp_api_v3&utm_medium=api_v3_business_search&utm_source=xyR_AdR6BfKaFakL89bXnQ", "review_count": 8104, "categories": [{"alias": "bakeries", "title": "Bakeries"}], "rating": 4.5, "coordinates": {"latitude": 40.7773520936702, "longitude": -73.980282552649}, "transactions": [], "price": "$$", "location": {"address1": "1484 3rd Ave", "address2": "", "address3": "", "city": "New York", "zip_code": "10023", "country": "US", "state": "NY", "display_address": ["1484 3rd Ave", "New York, NY 10023"]}, "phone": "+19174643769", "display_phone": "(917) 464-3769", "distance": 8082.367282240455}, {"id": "44SY464xDHbvOcjDzRbKkQ", "alias": "ippudo-ny-new-york-7", "name": "Ippudo NY", "image_url": "https://s3-media1.fl.yelpcdn.com/bphoto/zF3EgqHCk7zBUwD2B3WTEA/o.jpg", "is_closed": false, "url": "https://www.yelp.com/biz/ippudo-ny-new-york-7?adjust_creative=xyR_AdR6BfKaFakL89bXnQ&utm_campaign=yelp_api_v3&utm_medium=api_v3_business_search&utm_source=xyR_AdR6BfKaFakL89bXnQ", "review_count": 9967, "categories": [{"alias": "ramen", "title": "Ramen"}], "rating": 4.0, "coordinates": {"latitude": 40.73092, "longitude": -73.99015}, "transactions": ["delivery", "pickup"], "price": "$$", "location": {"address1": "65 4th Ave", "address2": "", "address3": "", "city": "New York", "zip_code": "10003", "country": "US", "state": "NY", "display_address": ["65 4th Ave", "New York, NY 10003"]}, "phone": "", "display_phone": "", "distance": 2854.3012674083675}, {"id": "xEnNFXtMLDF5kZDxfaCJgA", "alias": "the-halal-guys-new-york-2", "name": "The Halal Guys", "image_url": "https://s3-media3.fl.yelpcdn.com/bphoto/XJTkGcf2ENd-CUTK9slWqw/o.jpg", "is_closed": false, "url": "https://www.yelp.com/biz/the-halal-guys-new-york-2?adjust_creative=xyR_AdR6BfKaFakL89bXnQ&utm_campaign=yelp_api_v3&utm_medium=api_v3_business_search&utm_source=xyR_AdR6BfKaFakL89bXnQ", "review_count": 9480, "categories": [{"alias": "foodstands", "title": "Food Stands"}, {"alias": "mideastern", "title": "Middle Eastern"}, {"alias": "halal", "title": "Halal"}], "rating": 4.0, "coordinates": {"latitude": 40.7637700146632, "longitude": -73.9837699862947}, "transactions": ["delivery", "pickup"], "price": "$", "location": {"address1": "W 53rd St", "address2": null, "address3": "", "city": "New York", "zip_code": "10019", "country": "US", "state": "NY", "display_address": ["W 53rd St", "New York, NY 10019"]}, "phone": "+13475271505", "display_phone": "(347) 527-1505", "distance": 6579.837043273955}, {"id": "jVncyqXwlx_D9f2xZn05tg", "alias": "the-metropolitan-museum-of-art-new-york-3", "name": "The Metropolitan Museum of Art", "image_url": "https://s3-media3.fl.yelpcdn.com/bphoto/jRapRhjS0ZUmpdiLchya6g/o.jpg", "is_closed": false, "url": "https://www.yelp.com/biz/the-metropolitan-museum-of-art-new-york-3?adjust_creative=xyR_AdR6BfKaFakL89bXnQ&utm_campaign=yelp_api_v3&utm_medium=api_v3_business_search&utm_source=xyR_AdR6BfKaFakL89bXnQ", "review_count": 2886, "categories": [{"alias": "artmuseums", "title": "Art Museums"}], "rating": 4.5, "coordinates": {"latitude": 40.779449, "longitude": -73.963245}, "transactions": [], "location": {"address1": "1000 5th Ave", "address2": "", "address3": "", "city": "New York", "zip_code": "10028", "country": "US", "state": "NY", "display_address": ["1000 5th Ave", "New York, NY 10028"]}, "phone": "+12125357710", "display_phone": "(212) 535-7710", "distance": 8634.601734170283}, {"id": "xOw4aafJRji9XomGunlvcQ", "alias": "central-park-new-york", "name": "Central Park", "image_url": "https://s3-media2.fl.yelpcdn.com/bphoto/ru79-OUEcTI2_yVQqZBTjQ/o.jpg", "is_closed": false, "url": "https://www.yelp.com/biz/central-park-new-york?adjust_creative=xyR_AdR6BfKaFakL89bXnQ&utm_campaign=yelp_api_v3&utm_medium=api_v3_business_search&utm_source=xyR_AdR6BfKaFakL89bXnQ", "review_count": 2457, "categories": [{"alias": "parks", "title": "Parks"}], "rating": 5.0, "coordinates": {"latitude": 40.782418740809, "longitude": -73.9656022837641}, "transactions": [], "location": {"address1": "14 E 60th St", "address2": "", "address3": "Central Park Conservancy", "city": "New York", "zip_code": "10022", "country": "US", "state": "NY", "display_address": ["14 E 60th St", "Central Park Conservancy", "New York, NY 10022"]}, "phone": "", "display_phone": "", "distance": 8893.835855571413}, {"id": "WHRHK3S1mQc3PmhwsGRvbw", "alias": "bibble-and-sip-new-york-2", "name": "Bibble & Sip", "image_url": "https://s3-media3.fl.yelpcdn.com/bphoto/qvBB2GFH0zE8NFszubO2pg/o.jpg", "is_closed": false, "url": "https://www.yelp.com/biz/bibble-and-sip-new-york-2?adjust_creative=xyR_AdR6BfKaFakL89bXnQ&utm_campaign=yelp_api_v3&utm_medium=api_v3_business_search&utm_source=xyR_AdR6BfKaFakL89bXnQ", "review_count": 4806, "categories": [{"alias": "coffee", "title": "Coffee & Tea"}, {"alias": "bakeries", "title": "Bakeries"}], "rating": 4.5, "coordinates": {"latitude": 40.76282, "longitude": -73.98518}, "transactions": ["delivery", "pickup"], "price": "$", "location": {"address1": "253 W 51st St", "address2": "", "address3": "", "city": "New York", "zip_code": "10019", "country": "US", "state": "NY", "display_address": ["253 W 51st St", "New York, NY 10019"]}, "phone": "+16466495116", "display_phone": "(646) 649-5116", "distance": 6427.9212521553545}, {"id": "jnEv25Y2DosTq2sNnvmC9g", "alias": "los-tacos-no-1-new-york", "name": "Los Tacos No.1", "image_url": "https://s3-media2.fl.yelpcdn.com/bphoto/FU44TYl3PzXsE06G4W5aog/o.jpg", "is_closed": false, "url": "https://www.yelp.com/biz/los-tacos-no-1-new-york?adjust_creative=xyR_AdR6BfKaFakL89bXnQ&utm_campaign=yelp_api_v3&utm_medium=api_v3_business_search&utm_source=xyR_AdR6BfKaFakL89bXnQ", "review_count": 2981, "categories": [{"alias": "tacos", "title": "Tacos"}], "rating": 4.5, "coordinates": {"latitude": 40.7425547, "longitude": -74.0060838}, "transactions": ["delivery", "pickup"], "price": "$", "location": {"address1": "75 9th Ave", "address2": "", "address3": "", "city": "New York", "zip_code": "10011", "country": "US", "state": "NY", "display_address": ["75 9th Ave", "New York, NY 10011"]}, "phone": "", "display_phone": "", "distance": 4244.358699250552}, {"id": "zj8Lq1T8KIC5zwFief15jg", "alias": "prince-street-pizza-new-york-2", "name": "Prince Street Pizza", "image_url": "https://s3-media3.fl.yelpcdn.com/bphoto/ZAukOyv530w4KjOHC5YY1w/o.jpg", "is_closed": false, "url": "https://www.yelp.com/biz/prince-street-pizza-new-york-2?adjust_creative=xyR_AdR6BfKaFakL89bXnQ&utm_campaign=yelp_api_v3&utm_medium=api_v3_business_search&utm_source=xyR_AdR6BfKaFakL89bXnQ", "review_count": 3590, "categories": [{"alias": "pizza", "title": "Pizza"}, {"alias": "italian", "title": "Italian"}], "rating": 4.5, "coordinates": {"latitude": 40.7229087705545, "longitude": -73.9944863319397}, "transactions": ["delivery", "pickup"], "price": "$", "location": {"address1": "27 Prince St", "address2": null, "address3": "", "city": "New York", "zip_code": "10012", "country": "US", "state": "NY", "display_address": ["27 Prince St", "New York, NY 10012"]}, "phone": "+12129664100", "display_phone": "(212) 966-4100", "distance": 1941.9638172538225}, {"id": "jjJc_CrkB2HodEinB6cWww", "alias": "lovemama-new-york", "name": "LoveMama", "image_url": "https://s3-media1.fl.yelpcdn.com/bphoto/bLlFKTlVuLfmF-lIDGIjZA/o.jpg", "is_closed": false, "url": "https://www.yelp.com/biz/lovemama-new-york?adjust_creative=xyR_AdR6BfKaFakL89bXnQ&utm_campaign=yelp_api_v3&utm_medium=api_v3_business_search&utm_source=xyR_AdR6BfKaFakL89bXnQ", "review_count": 5012, "categories": [{"alias": "thai", "title": "Thai"}, {"alias": "malaysian", "title": "Malaysian"}, {"alias": "vietnamese", "title": "Vietnamese"}], "rating": 4.5, "coordinates": {"latitude": 40.7303859, "longitude": -73.9860613}, "transactions": ["delivery", "pickup"], "price": "$$", "location": {"address1": "174 2nd Ave", "address2": "", "address3": "", "city": "New York", "zip_code": "10003", "country": "US", "state": "NY", "display_address": ["174 2nd Ave", "New York, NY 10003"]}, "phone": "+12122545370", "display_phone": "(212) 254-5370", "distance": 2858.7729410008346}, {"id": "j1S3NUrkB3BVT49n_e76NQ", "alias": "best-bagel-and-coffee-new-york", "name": "Best Bagel & Coffee", "image_url": "https://s3-media2.fl.yelpcdn.com/bphoto/9-8DVzhwfzFS5GUCq3O6NA/o.jpg", "is_closed": false, "url": "https://www.yelp.com/biz/best-bagel-and-coffee-new-york?adjust_creative=xyR_AdR6BfKaFakL89bXnQ&utm_campaign=yelp_api_v3&utm_medium=api_v3_business_search&utm_source=xyR_AdR6BfKaFakL89bXnQ", "review_count": 3312, "categories": [{"alias": "bagels", "title": "Bagels"}, {"alias": "coffee", "title": "Coffee & Tea"}, {"alias": "breakfast_brunch", "title": "Breakfast & Brunch"}], "rating": 4.5, "coordinates": {"latitude": 40.7522683, "longitude": -73.9910861}, "transactions": ["delivery", "pickup"], "price": "$", "location": {"address1": "225 W 35th St", "address2": "", "address3": "", "city": "New York", "zip_code": "10001", "country": "US", "state": "NY", "display_address": ["225 W 35th St", "New York, NY 10001"]}, "phone": "+12125644409", "display_phone": "(212) 564-4409", "distance": 5213.5315009761325}, {"id": "UA2M9QFZghe-9th2KwLoWQ", "alias": "burger-and-lobster-new-york-4", "name": "Burger & Lobster", "image_url": "https://s3-media3.fl.yelpcdn.com/bphoto/1rHd7F4zztAsScwzM0vDmw/o.jpg", "is_closed": false, "url": "https://www.yelp.com/biz/burger-and-lobster-new-york-4?adjust_creative=xyR_AdR6BfKaFakL89bXnQ&utm_campaign=yelp_api_v3&utm_medium=api_v3_business_search&utm_source=xyR_AdR6BfKaFakL89bXnQ", "review_count": 5436, "categories": [{"alias": "seafood", "title": "Seafood"}, {"alias": "burgers", "title": "Burgers"}, {"alias": "newamerican", "title": "American (New)"}], "rating": 4.0, "coordinates": {"latitude": 40.74007, "longitude": -73.99344}, "transactions": ["delivery", "pickup"], "price": "$$", "location": {"address1": "39 W 19th St", "address2": "", "address3": "", "city": "New York", "zip_code": "10011", "country": "US", "state": "NY", "display_address": ["39 W 19th St", "New York, NY 10011"]}, "phone": "+16468337532", "display_phone": "(646) 833-7532", "distance": 3849.54386751767}, {"id": "B3_K2kUVbYOU0VaLcj_LTw", "alias": "thai-villa-new-york-2", "name": "Thai Villa", "image_url": "https://s3-media1.fl.yelpcdn.com/bphoto/OgCU9NPFIl8hF_04Zani9w/o.jpg", "is_closed": false, "url": "https://www.yelp.com/biz/thai-villa-new-york-2?adjust_creative=xyR_AdR6BfKaFakL89bXnQ&utm_campaign=yelp_api_v3&utm_medium=api_v3_business_search&utm_source=xyR_AdR6BfKaFakL89bXnQ", "review_count": 3369, "categories": [{"alias": "thai", "title": "Thai"}, {"alias": "asianfusion", "title": "Asian Fusion"}], "rating": 4.5, "coordinates": {"latitude": 40.73902, "longitude": -73.99065}, "transactions": ["delivery", "pickup"], "price": "$$", "location": {"address1": "5 E 19th St", "address2": "G Floor", "address3": "", "city": "New York", "zip_code": "10003", "country": "US", "state": "NY", "display_address": ["5 E 19th St", "G Floor", "New York, NY 10003"]}, "phone": "+12128029999", "display_phone": "(212) 802-9999", "distance": 3744.570399827637}, {"id": "veq1Bl1DW3UWMekZJUsG1Q", "alias": "gramercy-tavern-new-york", "name": "Gramercy Tavern", "image_url": "https://s3-media3.fl.yelpcdn.com/bphoto/MgfPMoFNmjIWcrMxTZbsvw/o.jpg", "is_closed": false, "url": "https://www.yelp.com/biz/gramercy-tavern-new-york?adjust_creative=xyR_AdR6BfKaFakL89bXnQ&utm_campaign=yelp_api_v3&utm_medium=api_v3_business_search&utm_source=xyR_AdR6BfKaFakL89bXnQ", "review_count": 2900, "categories": [{"alias": "newamerican", "title": "American (New)"}], "rating": 4.5, "coordinates": {"latitude": 40.73844, "longitude": -73.98825}, "transactions": [], "price": "$$$$", "location": {"address1": "42 E 20th St", "address2": "", "address3": "", "city": "New York", "zip_code": "10003", "country": "US", "state": "NY", "display_address": ["42 E 20th St", "New York, NY 10003"]}, "phone": "+12124770777", "display_phone": "(212) 477-0777", "distance": 3702.8075801197165}, {"id": "JION8hhg7q6zyayHYwhxIw", "alias": "the-high-line-new-york", "name": "The High Line", "image_url": "https://s3-media3.fl.yelpcdn.com/bphoto/c8aPLzWrFFiGay3eTWEMWQ/o.jpg", "is_closed": false, "url": "https://www.yelp.com/biz/the-high-line-new-york?adjust_creative=xyR_AdR6BfKaFakL89bXnQ&utm_campaign=yelp_api_v3&utm_medium=api_v3_business_search&utm_source=xyR_AdR6BfKaFakL89bXnQ", "review_count": 2347, "categories": [{"alias": "parks", "title": "Parks"}], "rating": 4.5, "coordinates": {"latitude": 40.7396, "longitude": -74.0084399}, "transactions": [], "location": {"address1": "820 Washington St", "address2": "", "address3": "", "city": "New York", "zip_code": "10014", "country": "US", "state": "NY", "display_address": ["820 Washington St", "New York, NY 10014"]}, "phone": "+12122069922", "display_phone": "(212) 206-9922", "distance": 3992.412193223877}, {"id": "4yPqqJDJOQX69gC66YUDkA", "alias": "peter-luger-brooklyn-2", "name": "Peter Luger", "image_url": "https://s3-media4.fl.yelpcdn.com/bphoto/KRpKd1ZdcYSPRDhlb12Vjw/o.jpg", "is_closed": false, "url": "https://www.yelp.com/biz/peter-luger-brooklyn-2?adjust_creative=xyR_AdR6BfKaFakL89bXnQ&utm_campaign=yelp_api_v3&utm_medium=api_v3_business_search&utm_source=xyR_AdR6BfKaFakL89bXnQ", "review_count": 5756, "categories": [{"alias": "steak", "title": "Steakhouses"}], "rating": 4.0, "coordinates": {"latitude": 40.709945, "longitude": -73.962478}, "transactions": [], "price": "$$$$", "location": {"address1": "178 Broadway", "address2": "", "address3": "", "city": "Brooklyn", "zip_code": "11211", "country": "US", "state": "NY", "display_address": ["178 Broadway", "Brooklyn, NY 11211"]}, "phone": "+17183877400", "display_phone": "(718) 387-7400", "distance": 2728.016921522817}, {"id": "kViIWJFfAfWPpJOwAXBKGA", "alias": "national-september-11-memorial-museum-new-york", "name": "National September 11 Memorial Museum", "image_url": "https://s3-media1.fl.yelpcdn.com/bphoto/8ejTr_6xUk1rNAVNVvq5Hg/o.jpg", "is_closed": false, "url": "https://www.yelp.com/biz/national-september-11-memorial-museum-new-york?adjust_creative=xyR_AdR6BfKaFakL89bXnQ&utm_campaign=yelp_api_v3&utm_medium=api_v3_business_search&utm_source=xyR_AdR6BfKaFakL89bXnQ", "review_count": 1422, "categories": [{"alias": "museums", "title": "Museums"}], "rating": 4.5, "coordinates": {"latitude": 40.71143, "longitude": -74.012481}, "transactions": [], "location": {"address1": "180 Greenwich St", "address2": "", "address3": "", "city": "New York", "zip_code": "10007", "country": "US", "state": "NY", "display_address": ["180 Greenwich St", "New York, NY 10007"]}, "phone": "+12122665211", "display_phone": "(212) 266-5211", "distance": 1671.270457850173}, {"id": "nU4XBdvxDABXqZ6CnB8Dig", "alias": "clinton-street-baking-company-new-york-5", "name": "Clinton Street Baking Company", "image_url": "https://s3-media4.fl.yelpcdn.com/bphoto/F7wxkVi5yW6Hia8xzE1HmA/o.jpg", "is_closed": false, "url": "https://www.yelp.com/biz/clinton-street-baking-company-new-york-5?adjust_creative=xyR_AdR6BfKaFakL89bXnQ&utm_campaign=yelp_api_v3&utm_medium=api_v3_business_search&utm_source=xyR_AdR6BfKaFakL89bXnQ", "review_count": 5085, "categories": [{"alias": "bakeries", "title": "Bakeries"}, {"alias": "breakfast_brunch", "title": "Breakfast & Brunch"}, {"alias": "tradamerican", "title": "American (Traditional)"}], "rating": 4.0, "coordinates": {"latitude": 40.721128, "longitude": -73.983933}, "transactions": ["delivery", "pickup", "restaurant_reservation"], "price": "$$", "location": {"address1": "4 Clinton St", "address2": "", "address3": "", "city": "New York", "zip_code": "10002", "country": "US", "state": "NY", "display_address": ["4 Clinton St", "New York, NY 10002"]}, "phone": "+16466026263", "display_phone": "(646) 602-6263", "distance": 1950.282829638887}, {"id": "FEVQpbOPOwAPNIgO7D3xxw", "alias": "shake-shack-new-york-2", "name": "Shake Shack", "image_url": "https://s3-media4.fl.yelpcdn.com/bphoto/gkSHBkSdDPuen4Ho9X2ukw/o.jpg", "is_closed": false, "url": "https://www.yelp.com/biz/shake-shack-new-york-2?adjust_creative=xyR_AdR6BfKaFakL89bXnQ&utm_campaign=yelp_api_v3&utm_medium=api_v3_business_search&utm_source=xyR_AdR6BfKaFakL89bXnQ", "review_count": 5583, "categories": [{"alias": "burgers", "title": "Burgers"}, {"alias": "foodstands", "title": "Food Stands"}, {"alias": "icecream", "title": "Ice Cream & Frozen Yogurt"}], "rating": 4.0, "coordinates": {"latitude": 40.7414000197233, "longitude": -73.98815019045}, "transactions": ["delivery"], "price": "$$", "location": {"address1": "Madison Square Park Near Madison Avenue and  E.23rd St", "address2": "", "address3": "", "city": "New York", "zip_code": "10010", "country": "US", "state": "NY", "display_address": ["Madison Square Park Near Madison Avenue and  E.23rd St", "New York, NY 10010"]}, "phone": "+12128896600", "display_phone": "(212) 889-6600", "distance": 4031.402495127816}, {"id": "vRrVSB-LegwUwIxpkeRVtQ", "alias": "le-bernardin-new-york", "name": "Le Bernardin", "image_url": "https://s3-media4.fl.yelpcdn.com/bphoto/c54rsVNmAhn_Ccz4tIXI_Q/o.jpg", "is_closed": false, "url": "https://www.yelp.com/biz/le-bernardin-new-york?adjust_creative=xyR_AdR6BfKaFakL89bXnQ&utm_campaign=yelp_api_v3&utm_medium=api_v3_business_search&utm_source=xyR_AdR6BfKaFakL89bXnQ", "review_count": 2534, "categories": [{"alias": "french", "title": "French"}, {"alias": "lounges", "title": "Lounges"}], "rating": 4.5, "coordinates": {"latitude": 40.761557, "longitude": -73.981763}, "transactions": [], "price": "$$$$", "location": {"address1": "155 W 51st St", "address2": "", "address3": "The Equitable Bldg", "city": "New York", "zip_code": "10019", "country": "US", "state": "NY", "display_address": ["155 W 51st St", "The Equitable Bldg", "New York, NY 10019"]}, "phone": "+12125541515", "display_phone": "(212) 554-1515", "distance": 6328.07179784047}, {"id": "SULHf6nGQ8sK0UpG1XU30w", "alias": "los-tacos-no-1-new-york-3", "name": "Los Tacos No.1", "image_url": "https://s3-media4.fl.yelpcdn.com/bphoto/5wEe4FCwda16knmBHSsX0Q/o.jpg", "is_closed": false, "url": "https://www.yelp.com/biz/los-tacos-no-1-new-york-3?adjust_creative=xyR_AdR6BfKaFakL89bXnQ&utm_campaign=yelp_api_v3&utm_medium=api_v3_business_search&utm_source=xyR_AdR6BfKaFakL89bXnQ", "review_count": 1773, "categories": [{"alias": "tacos", "title": "Tacos"}], "rating": 4.5, "coordinates": {"latitude": 40.7575067, "longitude": -73.9877717}, "transactions": ["delivery", "pickup"], "price": "$", "location": {"address1": "229 W 43rd St", "address2": "", "address3": null, "city": "New York", "zip_code": "10036", "country": "US", "state": "NY", "display_address": ["229 W 43rd St", "New York, NY 10036"]}, "phone": "+12125744696", "display_phone": "(212) 574-4696", "distance": 5815.027424033859}], "total": 24800, "region": {"center": {"longitude": -73.99429321289062, "latitude": 40.70544486444615}}}